$GPGGA,183629.00,3724.8860211,N,12200.1102791,W,5,19,1.0,-28.361,M,0.000,M,0.0,*73
$GPGGA,183629.10,3724.8860150,N,12200.1102826,W,5,19,1.0,-28.418,M,0.000,M,0.1,*7F
$GPGGA,183629.20,3724.8859865,N,12200.1107352,W,4,19,1.0,-29.984,M,0.000,M,0.2,*7F
$GPGGA,183629.30,3724.8859862,N,12200.1107345,W,4,19,1.0,-29.981,M,0.000,M,0.3,*7B
$GPGGA,183629.40,3724.8859865,N,12200.1107339,W,4,19,1.0,-29.981,M,0.000,M,0.4,*77
$GPGGA,183629.50,3724.8859863,N,12200.1107347,W,4,19,1.0,-29.980,M,0.000,M,0.5,*79
$GPGGA,183629.60,3724.8859863,N,12200.1107355,W,4,19,1.0,-29.980,M,0.000,M,0.6,*7A
$GPGGA,183629.70,3724.8859864,N,12200.1107357,W,4,19,1.0,-29.982,M,0.000,M,0.7,*7D
$GPGGA,183629.80,3724.8859864,N,12200.1107356,W,4,19,1.0,-29.983,M,0.000,M,0.8,*7D
$GPGGA,183629.90,3724.8859857,N,12200.1107355,W,4,19,1.0,-29.984,M,0.000,M,0.9,*79
$GPGGA,183630.00,3724.8859862,N,12200.1107351,W,4,19,1.0,-29.984,M,0.000,M,0.0,*73
$GPGGA,183630.10,3724.8859859,N,12200.1107344,W,4,19,1.0,-29.983,M,0.000,M,0.1,*78
$GPGGA,183630.20,3724.8859861,N,12200.1107356,W,4,19,1.0,-29.980,M,0.000,M,0.2,*73
$GPGGA,183630.30,3724.8859860,N,12200.1107351,W,4,19,1.0,-29.981,M,0.000,M,0.3,*74
$GPGGA,183630.40,3724.8859863,N,12200.1107351,W,4,19,1.0,-29.980,M,0.000,M,0.4,*76
$GPGGA,183630.50,3724.8859863,N,12200.1107354,W,4,19,1.0,-29.981,M,0.000,M,0.5,*72
$GPGGA,183630.60,3724.8859859,N,12200.1107357,W,4,19,1.0,-29.981,M,0.000,M,0.6,*78
$GPGGA,183630.70,3724.8859854,N,12200.1107349,W,4,19,1.0,-29.982,M,0.000,M,0.7,*79
$GPGGA,183630.80,3724.8859864,N,12200.1107352,W,4,19,1.0,-29.981,M,0.000,M,0.8,*73
$GPGGA,183630.90,3724.8859857,N,12200.1107363,W,4,19,1.0,-29.982,M,0.000,M,0.9,*72
$GPGGA,183631.00,3724.8859864,N,12200.1107347,W,4,19,1.0,-29.982,M,0.000,M,0.0,*75
$GPGGA,183631.10,3724.8859869,N,12200.1107338,W,4,19,1.0,-29.983,M,0.000,M,0.1,*71
$GPGGA,183631.20,3724.8859871,N,12200.1107350,W,4,19,1.0,-29.984,M,0.000,M,0.2,*71
$GPGGA,183631.30,3724.8859874,N,12200.1107352,W,4,19,1.0,-29.986,M,0.000,M,0.3,*74
$GPGGA,183631.40,3724.8859869,N,12200.1107350,W,4,19,1.0,-29.984,M,0.000,M,0.4,*78
$GPGGA,183631.50,3724.8859867,N,12200.1107345,W,4,19,1.0,-29.982,M,0.000,M,0.5,*74
$GPGGA,183631.60,3724.8859866,N,12200.1107351,W,4,19,1.0,-29.981,M,0.000,M,0.6,*73
$GPGGA,183631.70,3724.8859866,N,12200.1107358,W,4,19,1.0,-29.981,M,0.000,M,0.7,*7A
$GPGGA,183631.80,3724.8859868,N,12200.1107360,W,4,19,1.0,-29.982,M,0.000,M,0.8,*7C
$GPGGA,183631.90,3724.8859869,N,12200.1107357,W,4,19,1.0,-29.982,M,0.000,M,0.9,*79
$GPGGA,183632.00,3724.8859877,N,12200.1107347,W,4,19,1.0,-29.985,M,0.000,M,0.0,*73
$GPGGA,183632.10,3724.8859882,N,12200.1107345,W,4,19,1.0,-29.984,M,0.000,M,0.1,*7A
$GPGGA,183632.20,3724.8859876,N,12200.1107348,W,4,19,1.0,-29.984,M,0.000,M,0.2,*7C
$GPGGA,183632.30,3724.8859869,N,12200.1107349,W,4,19,1.0,-29.980,M,0.000,M,0.3,*77
$GPGGA,183632.40,3724.8859878,N,12200.1107350,W,4,19,1.0,-29.983,M,0.000,M,0.4,*7C
$GPGGA,183632.50,3724.8859873,N,12200.1107354,W,4,19,1.0,-29.982,M,0.000,M,0.5,*72
$GPGGA,183632.60,3724.8859875,N,12200.1107353,W,4,19,1.0,-29.983,M,0.000,M,0.6,*72
$GPGGA,183632.70,3724.8859868,N,12200.1107352,W,4,19,1.0,-29.984,M,0.000,M,0.7,*78
$GPGGA,183632.80,3724.8859867,N,12200.1107346,W,4,19,1.0,-29.982,M,0.000,M,0.8,*74
$GPGGA,183632.90,3724.8859869,N,12200.1107352,W,4,19,1.0,-29.979,M,0.000,M,0.9,*7B
$GPGGA,183633.00,3724.8859879,N,12200.1107352,W,4,19,1.0,-29.979,M,0.000,M,0.0,*7B
$GPGGA,183633.10,3724.8859878,N,12200.1107353,W,4,19,1.0,-29.980,M,0.000,M,0.1,*7D
$GPGGA,183633.20,3724.8859874,N,12200.1107350,W,4,19,1.0,-29.982,M,0.000,M,0.2,*70
$GPGGA,183633.30,3724.8859874,N,12200.1107348,W,4,19,1.0,-29.981,M,0.000,M,0.3,*7A
$GPGGA,183633.40,3724.8859866,N,12200.1107355,W,4,19,1.0,-29.983,M,0.000,M,0.4,*77
$GPGGA,183633.50,3724.8859869,N,12200.1107355,W,4,19,1.0,-29.984,M,0.000,M,0.5,*7F
$GPGGA,183633.60,3724.8859864,N,12200.1107360,W,4,19,1.0,-29.983,M,0.000,M,0.6,*73
$GPGGA,183633.70,3724.8859867,N,12200.1107354,W,4,19,1.0,-29.982,M,0.000,M,0.7,*76
$GPGGA,183633.80,3724.8859872,N,12200.1107347,W,4,19,1.0,-29.981,M,0.000,M,0.8,*73
$GPGGA,183633.90,3724.8859872,N,12200.1107356,W,4,19,1.0,-29.981,M,0.000,M,0.9,*73
$GPGGA,183634.00,3724.8859872,N,12200.1107349,W,4,19,1.0,-29.984,M,0.000,M,0.0,*7F
$GPGGA,183634.10,3724.8859863,N,12200.1107339,W,4,19,1.0,-29.986,M,0.000,M,0.1,*7A
$GPGGA,183634.20,3724.8859868,N,12200.1107343,W,4,19,1.0,-29.985,M,0.000,M,0.2,*7F
$GPGGA,183634.30,3724.8859870,N,12200.1107338,W,4,19,1.0,-29.983,M,0.000,M,0.3,*7C
$GPGGA,183634.40,3724.8859877,N,12200.1107343,W,4,19,1.0,-29.982,M,0.000,M,0.4,*76
$GPGGA,183634.50,3724.8859881,N,12200.1107344,W,4,19,1.0,-29.982,M,0.000,M,0.5,*78
$GPGGA,183634.60,3724.8859876,N,12200.1107351,W,4,19,1.0,-29.980,M,0.000,M,0.6,*76
$GPGGA,183634.70,3724.8859874,N,12200.1107342,W,4,19,1.0,-29.980,M,0.000,M,0.7,*76
$GPGGA,183634.80,3724.8859874,N,12200.1107344,W,4,19,1.0,-29.979,M,0.000,M,0.8,*76
$GPGGA,183634.90,3724.8859875,N,12200.1107348,W,4,19,1.0,-29.983,M,0.000,M,0.9,*7E
$GPGGA,183635.00,3724.8859870,N,12200.1107339,W,4,19,1.0,-29.982,M,0.000,M,0.0,*7D
$GPGGA,183635.10,3724.8859873,N,12200.1107338,W,4,19,1.0,-29.983,M,0.000,M,0.1,*7E
$GPGGA,183635.20,3724.8859872,N,12200.1107342,W,4,19,1.0,-29.982,M,0.000,M,0.2,*73
$GPGGA,183635.30,3724.8859869,N,12200.1107345,W,4,19,1.0,-29.980,M,0.000,M,0.3,*7C
$GPGGA,183635.40,3724.8859875,N,12200.1107350,W,4,19,1.0,-29.979,M,0.000,M,0.4,*73
$GPGGA,183635.50,3724.8859882,N,12200.1107349,W,4,19,1.0,-29.981,M,0.000,M,0.5,*74
$GPGGA,183635.60,3724.8859878,N,12200.1107350,W,4,19,1.0,-29.980,M,0.000,M,0.6,*78
$GPGGA,183635.70,3724.8859877,N,12200.1107348,W,4,19,1.0,-29.979,M,0.000,M,0.7,*78
$GPGGA,183635.80,3724.8859872,N,12200.1107350,W,4,19,1.0,-29.979,M,0.000,M,0.8,*74
$GPGGA,183635.90,3724.8859871,N,12200.1107355,W,4,19,1.0,-29.980,M,0.000,M,0.9,*74
$GPGGA,183636.00,3724.8859875,N,12200.1107341,W,4,19,1.0,-29.980,M,0.000,M,0.0,*76
$GPGGA,183636.10,3724.8859880,N,12200.1107341,W,4,19,1.0,-29.979,M,0.000,M,0.1,*7A
$GPGGA,183636.20,3724.8859878,N,12200.1107341,W,4,19,1.0,-29.979,M,0.000,M,0.2,*7D
$GPGGA,183636.30,3724.8859873,N,12200.1107345,W,4,19,1.0,-29.979,M,0.000,M,0.3,*72
$GPGGA,183636.40,3724.8859867,N,12200.1107346,W,4,19,1.0,-29.981,M,0.000,M,0.4,*73
$GPGGA,183636.50,3724.8859867,N,12200.1107341,W,4,19,1.0,-29.981,M,0.000,M,0.5,*74
$GPGGA,183636.60,3724.8859872,N,12200.1107343,W,4,19,1.0,-29.983,M,0.000,M,0.6,*70
$GPGGA,183636.70,3724.8859875,N,12200.1107342,W,4,19,1.0,-29.981,M,0.000,M,0.7,*74
$GPGGA,183636.80,3724.8859871,N,12200.1107344,W,4,19,1.0,-29.978,M,0.000,M,0.8,*70
$GPGGA,183636.90,3724.8859878,N,12200.1107344,W,4,19,1.0,-29.977,M,0.000,M,0.9,*76
$GPGGA,183637.00,3724.8859879,N,12200.1107343,W,4,19,1.0,-29.978,M,0.000,M,0.0,*7E
$GPGGA,183637.10,3724.8859879,N,12200.1107342,W,4,19,1.0,-29.980,M,0.000,M,0.1,*78
$GPGGA,183637.20,3724.8859867,N,12200.1107341,W,4,19,1.0,-29.980,M,0.000,M,0.2,*74
$GPGGA,183637.30,3724.8859870,N,12200.1107344,W,4,19,1.0,-29.981,M,0.000,M,0.3,*76
$GPGGA,183637.40,3724.8859866,N,12200.1107349,W,4,19,1.0,-29.982,M,0.000,M,0.4,*7F
$GPGGA,183637.50,3724.8859877,N,12200.1107348,W,4,19,1.0,-29.983,M,0.000,M,0.5,*7F
$GPGGA,183637.60,3724.8859878,N,12200.1107361,W,4,19,1.0,-29.980,M,0.000,M,0.6,*78
$GPGGA,183637.70,3724.8859872,N,12200.1107353,W,4,19,1.0,-29.982,M,0.000,M,0.7,*71
$GPGGA,183637.80,3724.8859868,N,12200.1107352,W,4,19,1.0,-29.984,M,0.000,M,0.8,*7D
$GPGGA,183637.90,3724.8859873,N,12200.1107353,W,4,19,1.0,-29.982,M,0.000,M,0.9,*70
$GPGGA,183638.00,3724.8859883,N,12200.1107348,W,4,19,1.0,-29.982,M,0.000,M,0.0,*7A
$GPGGA,183638.10,3724.8859879,N,12200.1107337,W,4,19,1.0,-29.979,M,0.000,M,0.1,*73
$GPGGA,183638.20,3724.8859880,N,12200.1107333,W,4,19,1.0,-29.979,M,0.000,M,0.2,*71
$GPGGA,183638.30,3724.8859876,N,12200.1107340,W,4,19,1.0,-29.981,M,0.000,M,0.3,*7B
$GPGGA,183638.40,3724.8859872,N,12200.1107341,W,4,19,1.0,-29.981,M,0.000,M,0.4,*7E
$GPGGA,183638.50,3724.8859869,N,12200.1107345,W,4,19,1.0,-29.977,M,0.000,M,0.5,*79
$GPGGA,183638.60,3724.8859869,N,12200.1107344,W,4,19,1.0,-29.977,M,0.000,M,0.6,*78
$GPGGA,183638.70,3724.8859870,N,12200.1107341,W,4,19,1.0,-29.978,M,0.000,M,0.7,*7A
$GPGGA,183638.80,3724.8859872,N,12200.1107339,W,4,19,1.0,-29.979,M,0.000,M,0.8,*76
$GPGGA,183638.90,3724.8859870,N,12200.1107347,W,4,19,1.0,-29.980,M,0.000,M,0.9,*7B
$GPGGA,183639.00,3724.8859878,N,12200.1107351,W,4,19,1.0,-29.980,M,0.000,M,0.0,*75
$GPGGA,183639.10,3724.8859879,N,12200.1107346,W,4,19,1.0,-29.983,M,0.000,M,0.1,*71
$GPGGA,183639.20,3724.8859871,N,12200.1107351,W,4,19,1.0,-29.984,M,0.000,M,0.2,*78
$GPGGA,183639.30,3724.8859874,N,12200.1107346,W,4,19,1.0,-29.981,M,0.000,M,0.3,*7E
$GPGGA,183639.40,3724.8859867,N,12200.1107336,W,4,19,1.0,-29.981,M,0.000,M,0.4,*7B
$GPGGA,183639.50,3724.8859868,N,12200.1107345,W,4,19,1.0,-29.982,M,0.000,M,0.5,*73
$GPGGA,183639.60,3724.8859878,N,12200.1107347,W,4,19,1.0,-29.981,M,0.000,M,0.6,*73
$GPGGA,183639.70,3724.8859872,N,12200.1107349,W,4,19,1.0,-29.981,M,0.000,M,0.7,*77
$GPGGA,183639.80,3724.8859866,N,12200.1107353,W,4,19,1.0,-29.981,M,0.000,M,0.8,*79
$GPGGA,183639.90,3724.8859866,N,12200.1107359,W,4,19,1.0,-29.981,M,0.000,M,0.9,*73
$GPGGA,183640.00,3724.8859873,N,12200.1107353,W,4,19,1.0,-29.979,M,0.000,M,0.0,*74
$GPGGA,183640.10,3724.8859878,N,12200.1107345,W,4,19,1.0,-29.979,M,0.000,M,0.1,*78
$GPGGA,183640.20,3724.8859877,N,12200.1107337,W,4,19,1.0,-29.979,M,0.000,M,0.2,*72
$GPGGA,183640.30,3724.8859875,N,12200.1107342,W,4,19,1.0,-29.977,M,0.000,M,0.3,*7C
$GPGGA,183640.40,3724.8859870,N,12200.1107348,W,4,19,1.0,-29.976,M,0.000,M,0.4,*72
$GPGGA,183640.50,3724.8859881,N,12200.1107349,W,4,19,1.0,-29.976,M,0.000,M,0.5,*7D
$GPGGA,183640.60,3724.8859875,N,12200.1107356,W,4,19,1.0,-29.980,M,0.000,M,0.6,*71
$GPGGA,183640.70,3724.8859878,N,12200.1107360,W,4,19,1.0,-29.980,M,0.000,M,0.7,*79
$GPGGA,183640.80,3724.8859877,N,12200.1107356,W,4,19,1.0,-29.982,M,0.000,M,0.8,*71
$GPGGA,183640.90,3724.8859876,N,12200.1107362,W,4,19,1.0,-29.982,M,0.000,M,0.9,*77
$GPGGA,183641.00,3724.8859879,N,12200.1107343,W,4,19,1.0,-29.981,M,0.000,M,0.0,*79
$GPGGA,183641.10,3724.8859877,N,12200.1107346,W,4,19,1.0,-29.979,M,0.000,M,0.1,*75
$GPGGA,183641.20,3724.8859875,N,12200.1107346,W,4,19,1.0,-29.977,M,0.000,M,0.2,*79
$GPGGA,183641.30,3724.8859870,N,12200.1107344,W,4,19,1.0,-29.974,M,0.000,M,0.3,*7D
$GPGGA,183641.40,3724.8859875,N,12200.1107343,W,4,19,1.0,-29.977,M,0.000,M,0.4,*7C
$GPGGA,183641.50,3724.8859874,N,12200.1107350,W,4,19,1.0,-29.979,M,0.000,M,0.5,*71
$GPGGA,183641.60,3724.8859866,N,12200.1107353,W,4,19,1.0,-29.978,M,0.000,M,0.6,*70
$GPGGA,183641.70,3724.8859870,N,12200.1107358,W,4,19,1.0,-29.977,M,0.000,M,0.7,*73
$GPGGA,183641.80,3724.8859877,N,12200.1107361,W,4,19,1.0,-29.980,M,0.000,M,0.8,*76
$GPGGA,183641.90,3724.8859878,N,12200.1107359,W,4,19,1.0,-29.981,M,0.000,M,0.9,*73
$GPGGA,183642.00,3724.8859868,N,12200.1107342,W,4,19,1.0,-29.982,M,0.000,M,0.0,*78
$GPGGA,183642.10,3724.8859874,N,12200.1107345,W,4,19,1.0,-29.983,M,0.000,M,0.1,*73
$GPGGA,183642.20,3724.8859875,N,12200.1107345,W,4,19,1.0,-29.980,M,0.000,M,0.2,*71
$GPGGA,183642.30,3724.8859878,N,12200.1107343,W,4,19,1.0,-29.981,M,0.000,M,0.3,*7B
$GPGGA,183642.40,3724.8859876,N,12200.1107350,W,4,19,1.0,-29.982,M,0.000,M,0.4,*74
$GPGGA,183642.50,3724.8859868,N,12200.1107351,W,4,19,1.0,-29.984,M,0.000,M,0.5,*7C
$GPGGA,183642.60,3724.8859878,N,12200.1107344,W,4,19,1.0,-29.984,M,0.000,M,0.6,*79
$GPGGA,183642.70,3724.8859871,N,12200.1107350,W,4,19,1.0,-29.985,M,0.000,M,0.7,*74
$GPGGA,183642.80,3724.8859869,N,12200.1107358,W,4,19,1.0,-29.984,M,0.000,M,0.8,*74
$GPGGA,183642.90,3724.8859877,N,12200.1107354,W,4,19,1.0,-29.982,M,0.000,M,0.9,*71
$GPGGA,183643.00,3724.8859876,N,12200.1107344,W,4,19,1.0,-29.983,M,0.000,M,0.0,*71
$GPGGA,183643.10,3724.8859878,N,12200.1107345,W,4,19,1.0,-29.983,M,0.000,M,0.1,*7E
$GPGGA,183643.20,3724.8859877,N,12200.1107347,W,4,19,1.0,-29.984,M,0.000,M,0.2,*74
$GPGGA,183643.30,3724.8859874,N,12200.1107356,W,4,19,1.0,-29.985,M,0.000,M,0.3,*76
$GPGGA,183643.40,3724.8859878,N,12200.1107351,W,4,19,1.0,-29.983,M,0.000,M,0.4,*7B
$GPGGA,183643.50,3724.8859873,N,12200.1107349,W,4,19,1.0,-29.983,M,0.000,M,0.5,*79
$GPGGA,183643.60,3724.8859865,N,12200.1107351,W,4,19,1.0,-29.981,M,0.000,M,0.6,*75
$GPGGA,183643.70,3724.8859869,N,12200.1107344,W,4,19,1.0,-29.983,M,0.000,M,0.7,*7F
$GPGGA,183643.80,3724.8859881,N,12200.1107350,W,4,19,1.0,-29.984,M,0.000,M,0.8,*7B
$GPGGA,183643.90,3724.8859872,N,12200.1107348,W,4,19,1.0,-29.981,M,0.000,M,0.9,*7B
$GPGGA,183644.00,3724.8859870,N,12200.1107343,W,4,19,1.0,-29.979,M,0.000,M,0.0,*72
$GPGGA,183644.10,3724.8859871,N,12200.1107339,W,4,19,1.0,-29.980,M,0.000,M,0.1,*78
$GPGGA,183644.20,3724.8859878,N,12200.1107342,W,4,19,1.0,-29.979,M,0.000,M,0.2,*7B
$GPGGA,183644.30,3724.8859872,N,12200.1107346,W,4,19,1.0,-29.979,M,0.000,M,0.3,*75
$GPGGA,183644.40,3724.8859873,N,12200.1107348,W,4,19,1.0,-29.979,M,0.000,M,0.4,*7A
$GPGGA,183644.50,3724.8859876,N,12200.1107347,W,4,19,1.0,-29.980,M,0.000,M,0.5,*76
$GPGGA,183644.60,3724.8859873,N,12200.1107344,W,4,19,1.0,-29.980,M,0.000,M,0.6,*70
$GPGGA,183644.70,3724.8859871,N,12200.1107348,W,4,19,1.0,-29.977,M,0.000,M,0.7,*76
$GPGGA,183644.80,3724.8859874,N,12200.1107347,W,4,19,1.0,-29.978,M,0.000,M,0.8,*73
$GPGGA,183644.90,3724.8859875,N,12200.1107347,W,4,19,1.0,-29.979,M,0.000,M,0.9,*73
$GPGGA,183645.00,3724.8859874,N,12200.1107345,W,4,19,1.0,-29.982,M,0.000,M,0.0,*75
$GPGGA,183645.10,3724.8859875,N,12200.1107335,W,4,19,1.0,-29.982,M,0.000,M,0.1,*73
$GPGGA,183645.20,3724.8859869,N,12200.1107337,W,4,19,1.0,-29.982,M,0.000,M,0.2,*7C
$GPGGA,183645.30,3724.8859865,N,12200.1107336,W,4,19,1.0,-29.982,M,0.000,M,0.3,*71
$GPGGA,183645.40,3724.8859866,N,12200.1107343,W,4,19,1.0,-29.978,M,0.000,M,0.4,*75
$GPGGA,183645.50,3724.8859862,N,12200.1107345,W,4,19,1.0,-29.978,M,0.000,M,0.5,*77
$GPGGA,183645.60,3724.8859862,N,12200.1107351,W,4,19,1.0,-29.979,M,0.000,M,0.6,*73
$GPGGA,183645.70,3724.8859866,N,12200.1107352,W,4,19,1.0,-29.979,M,0.000,M,0.7,*74
$GPGGA,183645.80,3724.8859865,N,12200.1107353,W,4,19,1.0,-29.980,M,0.000,M,0.8,*70
$GPGGA,183645.90,3724.8859878,N,12200.1107353,W,4,19,1.0,-29.982,M,0.000,M,0.9,*7E
$GPGGA,183646.00,3724.8859874,N,12200.1107336,W,4,19,1.0,-29.980,M,0.000,M,0.0,*70
$GPGGA,183646.10,3724.8859870,N,12200.1107336,W,4,19,1.0,-29.981,M,0.000,M,0.1,*75
$GPGGA,183646.20,3724.8859870,N,12200.1107335,W,4,19,1.0,-29.981,M,0.000,M,0.2,*76
$GPGGA,183646.30,3724.8859876,N,12200.1107343,W,4,19,1.0,-29.979,M,0.000,M,0.3,*76
$GPGGA,183646.40,3724.8859866,N,12200.1107350,W,4,19,1.0,-29.982,M,0.000,M,0.4,*71
$GPGGA,183646.50,3724.8859876,N,12200.1107346,W,4,19,1.0,-29.980,M,0.000,M,0.5,*75
$GPGGA,183646.60,3724.8859872,N,12200.1107350,W,4,19,1.0,-29.980,M,0.000,M,0.6,*76
$GPGGA,183646.70,3724.8859867,N,12200.1107350,W,4,19,1.0,-29.981,M,0.000,M,0.7,*73
$GPGGA,183646.80,3724.8859872,N,12200.1107347,W,4,19,1.0,-29.982,M,0.000,M,0.8,*72
$GPGGA,183646.90,3724.8859875,N,12200.1107345,W,4,19,1.0,-29.983,M,0.000,M,0.9,*76
$GPGGA,183647.00,3724.8859882,N,12200.1107340,W,4,19,1.0,-29.981,M,0.000,M,0.0,*78
$GPGGA,183647.10,3724.8859868,N,12200.1107336,W,4,19,1.0,-29.981,M,0.000,M,0.1,*7D
$GPGGA,183647.20,3724.8859869,N,12200.1107335,W,4,19,1.0,-29.982,M,0.000,M,0.2,*7C
$GPGGA,183647.30,3724.8859875,N,12200.1107337,W,4,19,1.0,-29.982,M,0.000,M,0.3,*73
$GPGGA,183647.40,3724.8859876,N,12200.1107342,W,4,19,1.0,-29.982,M,0.000,M,0.4,*72
$GPGGA,183647.50,3724.8859877,N,12200.1107336,W,4,19,1.0,-29.982,M,0.000,M,0.5,*70
$GPGGA,183647.60,3724.8859875,N,12200.1107343,W,4,19,1.0,-29.982,M,0.000,M,0.6,*70
$GPGGA,183647.70,3724.8859876,N,12200.1107347,W,4,19,1.0,-29.984,M,0.000,M,0.7,*71
$GPGGA,183647.80,3724.8859873,N,12200.1107348,W,4,19,1.0,-29.985,M,0.000,M,0.8,*7A
$GPGGA,183647.90,3724.8859867,N,12200.1107354,W,4,19,1.0,-29.982,M,0.000,M,0.9,*75
$GPGGA,183648.00,3724.8859869,N,12200.1107349,W,4,19,1.0,-29.980,M,0.000,M,0.0,*7A
$GPGGA,183648.10,3724.8859870,N,12200.1107347,W,4,19,1.0,-29.980,M,0.000,M,0.1,*7C
$GPGGA,183648.20,3724.8859864,N,12200.1107344,W,4,19,1.0,-29.980,M,0.000,M,0.2,*7A
$GPGGA,183648.30,3724.8859872,N,12200.1107347,W,4,19,1.0,-29.978,M,0.000,M,0.3,*79
$GPGGA,183648.40,3724.8859872,N,12200.1107345,W,4,19,1.0,-29.980,M,0.000,M,0.4,*7C
$GPGGA,183648.50,3724.8859875,N,12200.1107342,W,4,19,1.0,-29.980,M,0.000,M,0.5,*7C
$GPGGA,183648.60,3724.8859871,N,12200.1107349,W,4,19,1.0,-29.982,M,0.000,M,0.6,*71
$GPGGA,183648.70,3724.8859873,N,12200.1107349,W,4,19,1.0,-29.982,M,0.000,M,0.7,*73
$GPGGA,183648.80,3724.8859872,N,12200.1107354,W,4,19,1.0,-29.981,M,0.000,M,0.8,*7D
$GPGGA,183648.90,3724.8859874,N,12200.1107352,W,4,19,1.0,-29.980,M,0.000,M,0.9,*7C
$GPGGA,183649.00,3724.8859875,N,12200.1107342,W,4,19,1.0,-29.982,M,0.000,M,0.0,*7F
$GPGGA,183649.10,3724.8859870,N,12200.1107349,W,4,19,1.0,-29.982,M,0.000,M,0.1,*71
$GPGGA,183649.20,3724.8859869,N,12200.1107346,W,4,19,1.0,-29.981,M,0.000,M,0.2,*75
$GPGGA,183649.30,3724.8859870,N,12200.1107342,W,4,19,1.0,-29.981,M,0.000,M,0.3,*79
$GPGGA,183649.40,3724.8859866,N,12200.1107342,W,4,19,1.0,-29.982,M,0.000,M,0.4,*7D
$GPGGA,183649.50,3724.8859868,N,12200.1107351,W,4,19,1.0,-29.982,M,0.000,M,0.5,*71
$GPGGA,183649.60,3724.8859861,N,12200.1107347,W,4,19,1.0,-29.983,M,0.000,M,0.6,*7E
$GPGGA,183649.70,3724.8859866,N,12200.1107352,W,4,19,1.0,-29.983,M,0.000,M,0.7,*7D
$GPGGA,183649.80,3724.8859871,N,12200.1107358,W,4,19,1.0,-29.982,M,0.000,M,0.8,*70
$GPGGA,183649.90,3724.8859871,N,12200.1107359,W,4,19,1.0,-29.983,M,0.000,M,0.9,*70
$GPGGA,183650.00,3724.8859872,N,12200.1107347,W,4,19,1.0,-29.980,M,0.000,M,0.0,*77
$GPGGA,183650.10,3724.8859877,N,12200.1107340,W,4,19,1.0,-29.981,M,0.000,M,0.1,*74
$GPGGA,183650.20,3724.8859871,N,12200.1107339,W,4,19,1.0,-29.980,M,0.000,M,0.2,*7D
$GPGGA,183650.30,3724.8859866,N,12200.1107339,W,4,19,1.0,-29.982,M,0.000,M,0.3,*79
$GPGGA,183650.40,3724.8859867,N,12200.1107349,W,4,19,1.0,-29.981,M,0.000,M,0.4,*7C
$GPGGA,183650.50,3724.8859862,N,12200.1107347,W,4,19,1.0,-29.981,M,0.000,M,0.5,*77
$GPGGA,183650.60,3724.8859871,N,12200.1107345,W,4,19,1.0,-29.983,M,0.000,M,0.6,*75
$GPGGA,183650.70,3724.8859872,N,12200.1107344,W,4,19,1.0,-29.984,M,0.000,M,0.7,*70
$GPGGA,183650.80,3724.8859870,N,12200.1107341,W,4,19,1.0,-29.986,M,0.000,M,0.8,*75
$GPGGA,183650.90,3724.8859864,N,12200.1107349,W,4,19,1.0,-29.985,M,0.000,M,0.9,*7B
$GPGGA,183651.00,3724.8859871,N,12200.1107343,W,4,19,1.0,-29.985,M,0.000,M,0.0,*74
$GPGGA,183651.10,3724.8859874,N,12200.1107343,W,4,19,1.0,-29.983,M,0.000,M,0.1,*77
$GPGGA,183651.20,3724.8859869,N,12200.1107339,W,4,19,1.0,-29.983,M,0.000,M,0.2,*76
$GPGGA,183651.30,3724.8859865,N,12200.1107338,W,4,19,1.0,-29.983,M,0.000,M,0.3,*7B
$GPGGA,183651.40,3724.8859871,N,12200.1107347,W,4,19,1.0,-29.982,M,0.000,M,0.4,*77
$GPGGA,183651.50,3724.8859869,N,12200.1107345,W,4,19,1.0,-29.981,M,0.000,M,0.5,*7F
$GPGGA,183651.60,3724.8859873,N,12200.1107354,W,4,19,1.0,-29.980,M,0.000,M,0.6,*75
$GPGGA,183651.70,3724.8859872,N,12200.1107350,W,4,19,1.0,-29.981,M,0.000,M,0.7,*71
$GPGGA,183651.80,3724.8859863,N,12200.1107341,W,4,19,1.0,-29.982,M,0.000,M,0.8,*72
$GPGGA,183651.90,3724.8859863,N,12200.1107350,W,4,19,1.0,-29.981,M,0.000,M,0.9,*71
$GPGGA,183652.00,3724.8859870,N,12200.1107350,W,4,19,1.0,-29.982,M,0.000,M,0.0,*73
$GPGGA,183652.10,3724.8859869,N,12200.1107353,W,4,19,1.0,-29.984,M,0.000,M,0.1,*7E
$GPGGA,183652.20,3724.8859861,N,12200.1107343,W,4,19,1.0,-29.982,M,0.000,M,0.2,*71
$GPGGA,183652.30,3724.8859863,N,12200.1107345,W,4,19,1.0,-29.982,M,0.000,M,0.3,*75
$GPGGA,183652.40,3724.8859875,N,12200.1107343,W,4,19,1.0,-29.983,M,0.000,M,0.4,*75
$GPGGA,183652.50,3724.8859871,N,12200.1107355,W,4,19,1.0,-29.984,M,0.000,M,0.5,*71
$GPGGA,183652.60,3724.8859871,N,12200.1107358,W,4,19,1.0,-29.982,M,0.000,M,0.6,*7A
$GPGGA,183652.70,3724.8859868,N,12200.1107358,W,4,19,1.0,-29.982,M,0.000,M,0.7,*72
$GPGGA,183652.80,3724.8859867,N,12200.1107353,W,4,19,1.0,-29.984,M,0.000,M,0.8,*70
$GPGGA,183652.90,3724.8859867,N,12200.1107356,W,4,19,1.0,-29.986,M,0.000,M,0.9,*77
$GPGGA,183653.00,3724.8859873,N,12200.1107339,W,4,19,1.0,-29.985,M,0.000,M,0.0,*79
$GPGGA,183653.10,3724.8859870,N,12200.1107343,W,4,19,1.0,-29.984,M,0.000,M,0.1,*76
$GPGGA,183653.20,3724.8859869,N,12200.1107334,W,4,19,1.0,-29.982,M,0.000,M,0.2,*78
$GPGGA,183653.30,3724.8859871,N,12200.1107345,W,4,19,1.0,-29.983,M,0.000,M,0.3,*76
$GPGGA,183653.40,3724.8859872,N,12200.1107341,W,4,19,1.0,-29.982,M,0.000,M,0.4,*70
$GPGGA,183653.50,3724.8859869,N,12200.1107355,W,4,19,1.0,-29.982,M,0.000,M,0.5,*7F
$GPGGA,183653.60,3724.8859876,N,12200.1107352,W,4,19,1.0,-29.981,M,0.000,M,0.6,*75
$GPGGA,183653.70,3724.8859870,N,12200.1107355,W,4,19,1.0,-29.981,M,0.000,M,0.7,*74
$GPGGA,183653.80,3724.8859860,N,12200.1107356,W,4,19,1.0,-29.984,M,0.000,M,0.8,*73
$GPGGA,183653.90,3724.8859873,N,12200.1107353,W,4,19,1.0,-29.985,M,0.000,M,0.9,*75
$GPGGA,183654.00,3724.8859862,N,12200.1107346,W,4,19,1.0,-29.986,M,0.000,M,0.0,*75
$GPGGA,183654.10,3724.8859866,N,12200.1107340,W,4,19,1.0,-29.983,M,0.000,M,0.1,*72
$GPGGA,183654.20,3724.8859862,N,12200.1107344,W,4,19,1.0,-29.983,M,0.000,M,0.2,*72
$GPGGA,183654.30,3724.8859868,N,12200.1107353,W,4,19,1.0,-29.983,M,0.000,M,0.3,*7E
$GPGGA,183654.40,3724.8859865,N,12200.1107349,W,4,19,1.0,-29.982,M,0.000,M,0.4,*79
$GPGGA,183654.50,3724.8859864,N,12200.1107353,W,4,19,1.0,-29.982,M,0.000,M,0.5,*73
$GPGGA,183654.60,3724.8859863,N,12200.1107353,W,4,19,1.0,-29.985,M,0.000,M,0.6,*73
$GPGGA,183654.70,3724.8859871,N,12200.1107355,W,4,19,1.0,-29.985,M,0.000,M,0.7,*76
$GPGGA,183654.80,3724.8859865,N,12200.1107356,W,4,19,1.0,-29.983,M,0.000,M,0.8,*76
$GPGGA,183654.90,3724.8859871,N,12200.1107359,W,4,19,1.0,-29.986,M,0.000,M,0.9,*79
$GPGGA,183655.00,3724.8859878,N,12200.1107346,W,4,19,1.0,-29.984,M,0.000,M,0.0,*7D
$GPGGA,183655.10,3724.8859871,N,12200.1107354,W,4,19,1.0,-29.982,M,0.000,M,0.1,*71
$GPGGA,183655.20,3724.8859874,N,12200.1107353,W,4,19,1.0,-29.984,M,0.000,M,0.2,*75
$GPGGA,183655.30,3724.8859873,N,12200.1107344,W,4,19,1.0,-29.985,M,0.000,M,0.3,*75
$GPGGA,183655.40,3724.8859877,N,12200.1107349,W,4,19,1.0,-29.986,M,0.000,M,0.4,*7F
$GPGGA,183655.50,3724.8859875,N,12200.1107352,W,4,19,1.0,-29.990,M,0.000,M,0.5,*70
$GPGGA,183655.60,3724.8859874,N,12200.1107354,W,4,19,1.0,-29.988,M,0.000,M,0.6,*7E
$GPGGA,183655.70,3724.8859863,N,12200.1107354,W,4,19,1.0,-29.987,M,0.000,M,0.7,*77
$GPGGA,183655.80,3724.8859859,N,12200.1107352,W,4,19,1.0,-29.985,M,0.000,M,0.8,*7A
$GPGGA,183655.90,3724.8859857,N,12200.1107361,W,4,19,1.0,-29.984,M,0.000,M,0.9,*75
$GPGGA,183656.00,3724.8859859,N,12200.1107360,W,4,19,1.0,-29.983,M,0.000,M,0.0,*7E
$GPGGA,183656.10,3724.8859865,N,12200.1107354,W,4,19,1.0,-29.985,M,0.000,M,0.1,*70
$GPGGA,183656.20,3724.8859862,N,12200.1107352,W,4,19,1.0,-29.985,M,0.000,M,0.2,*71
$GPGGA,183656.30,3724.8859863,N,12200.1107349,W,4,19,1.0,-29.982,M,0.000,M,0.3,*7D
$GPGGA,183656.40,3724.8859859,N,12200.1107354,W,4,19,1.0,-29.983,M,0.000,M,0.4,*79
$GPGGA,183656.50,3724.8859867,N,12200.1107349,W,4,19,1.0,-29.982,M,0.000,M,0.5,*79
$GPGGA,183656.60,3724.8859866,N,12200.1107350,W,4,19,1.0,-29.981,M,0.000,M,0.6,*73
$GPGGA,183656.70,3724.8859857,N,12200.1107355,W,4,19,1.0,-29.981,M,0.000,M,0.7,*74
$GPGGA,183656.80,3724.8859857,N,12200.1107356,W,4,19,1.0,-29.981,M,0.000,M,0.8,*77
$GPGGA,183656.90,3724.8859865,N,12200.1107363,W,4,19,1.0,-29.983,M,0.000,M,0.9,*72
$GPGGA,183657.00,3724.8859869,N,12200.1107361,W,4,19,1.0,-29.984,M,0.000,M,0.0,*7A
$GPGGA,183657.10,3724.8859868,N,12200.1107351,W,4,19,1.0,-29.985,M,0.000,M,0.1,*79
$GPGGA,183657.20,3724.8859872,N,12200.1107344,W,4,19,1.0,-29.982,M,0.000,M,0.2,*71
$GPGGA,183657.30,3724.8859872,N,12200.1107348,W,4,19,1.0,-29.985,M,0.000,M,0.3,*7A
$GPGGA,183657.40,3724.8859882,N,12200.1107352,W,4,19,1.0,-29.984,M,0.000,M,0.4,*7F
$GPGGA,183657.50,3724.8859873,N,12200.1107350,W,4,19,1.0,-29.984,M,0.000,M,0.5,*73
$GPGGA,183657.60,3724.8859881,N,12200.1107355,W,4,19,1.0,-29.985,M,0.000,M,0.6,*7A
$GPGGA,183657.70,3724.8859879,N,12200.1107344,W,4,19,1.0,-29.986,M,0.000,M,0.7,*7E
$GPGGA,183657.80,3724.8859873,N,12200.1107351,W,4,19,1.0,-29.985,M,0.000,M,0.8,*73
$GPGGA,183657.90,3724.8859870,N,12200.1107358,W,4,19,1.0,-29.985,M,0.000,M,0.9,*79
$GPGGA,183658.00,3724.8859862,N,12200.1107350,W,4,19,1.0,-29.985,M,0.000,M,0.0,*7D
$GPGGA,183658.10,3724.8859864,N,12200.1107341,W,4,19,1.0,-29.984,M,0.000,M,0.1,*7A
$GPGGA,183658.20,3724.8859867,N,12200.1107345,W,4,19,1.0,-29.983,M,0.000,M,0.2,*7A
$GPGGA,183658.30,3724.8859868,N,12200.1107347,W,4,19,1.0,-29.981,M,0.000,M,0.3,*75
$GPGGA,183658.40,3724.8859868,N,12200.1107354,W,4,19,1.0,-29.981,M,0.000,M,0.4,*77
$GPGGA,183658.50,3724.8859870,N,12200.1107360,W,4,19,1.0,-29.980,M,0.000,M,0.5,*78
$GPGGA,183658.60,3724.8859865,N,12200.1107363,W,4,19,1.0,-29.980,M,0.000,M,0.6,*7F
$GPGGA,183658.70,3724.8859874,N,12200.1107362,W,4,19,1.0,-29.981,M,0.000,M,0.7,*7F
$GPGGA,183658.80,3724.8859864,N,12200.1107356,W,4,19,1.0,-29.983,M,0.000,M,0.8,*7B
$GPGGA,183658.90,3724.8859865,N,12200.1107360,W,4,19,1.0,-29.982,M,0.000,M,0.9,*7E
$GPGGA,183659.00,3724.8859867,N,12200.1107358,W,4,19,1.0,-29.983,M,0.000,M,0.0,*77
$GPGGA,183659.10,3724.8859879,N,12200.1107356,W,4,19,1.0,-29.983,M,0.000,M,0.1,*76
$GPGGA,183659.20,3724.8859876,N,12200.1107350,W,4,19,1.0,-29.983,M,0.000,M,0.2,*7F
$GPGGA,183659.30,3724.8859874,N,12200.1107351,W,4,19,1.0,-29.983,M,0.000,M,0.3,*7C
$GPGGA,183659.40,3724.8859874,N,12200.1107361,W,4,19,1.0,-29.982,M,0.000,M,0.4,*7E
$GPGGA,183659.50,3724.8859879,N,12200.1107362,W,4,19,1.0,-29.984,M,0.000,M,0.5,*76
$GPGGA,183659.60,3724.8859881,N,12200.1107352,W,4,19,1.0,-29.985,M,0.000,M,0.6,*73
$GPGGA,183659.70,3724.8859872,N,12200.1107356,W,4,19,1.0,-29.984,M,0.000,M,0.7,*7A
$GPGGA,183659.80,3724.8859874,N,12200.1107359,W,4,19,1.0,-29.980,M,0.000,M,0.8,*77
$GPGGA,183659.90,3724.8859874,N,12200.1107363,W,4,19,1.0,-29.980,M,0.000,M,0.9,*7E
$GPGGA,183700.00,3724.8859872,N,12200.1107347,W,4,19,1.0,-29.982,M,0.000,M,0.0,*71
$GPGGA,183700.10,3724.8859872,N,12200.1107356,W,4,19,1.0,-29.983,M,0.000,M,0.1,*70
$GPGGA,183700.20,3724.8859873,N,12200.1107352,W,4,19,1.0,-29.982,M,0.000,M,0.2,*74
$GPGGA,183700.30,3724.8859874,N,12200.1107347,W,4,19,1.0,-29.982,M,0.000,M,0.3,*77
$GPGGA,183700.40,3724.8859869,N,12200.1107354,W,4,19,1.0,-29.983,M,0.000,M,0.4,*78
$GPGGA,183700.50,3724.8859867,N,12200.1107353,W,4,19,1.0,-29.982,M,0.000,M,0.5,*70
$GPGGA,183700.60,3724.8859862,N,12200.1107356,W,4,19,1.0,-29.987,M,0.000,M,0.6,*75
$GPGGA,183700.70,3724.8859865,N,12200.1107352,W,4,19,1.0,-29.983,M,0.000,M,0.7,*72
$GPGGA,183700.80,3724.8859859,N,12200.1107355,W,4,19,1.0,-29.982,M,0.000,M,0.8,*7B
$GPGGA,183700.90,3724.8859870,N,12200.1107366,W,4,19,1.0,-29.986,M,0.000,M,0.9,*74
$GPGGA,183701.00,3724.8859876,N,12200.1107362,W,4,19,1.0,-29.984,M,0.000,M,0.0,*75
$GPGGA,183701.10,3724.8859870,N,12200.1107353,W,4,19,1.0,-29.984,M,0.000,M,0.1,*71
$GPGGA,183701.20,3724.8859863,N,12200.1107351,W,4,19,1.0,-29.979,M,0.000,M,0.2,*73
$GPGGA,183701.30,3724.8859871,N,12200.1107356,W,4,19,1.0,-29.981,M,0.000,M,0.3,*70
$GPGGA,183701.40,3724.8859877,N,12200.1107366,W,4,19,1.0,-29.984,M,0.000,M,0.4,*70
$GPGGA,183701.50,3724.8859876,N,12200.1107355,W,4,19,1.0,-29.984,M,0.000,M,0.5,*71
$GPGGA,183701.60,3724.8859887,N,12200.1107351,W,4,19,1.0,-29.984,M,0.000,M,0.6,*7B
$GPGGA,183701.70,3724.8859892,N,12200.1107349,W,4,19,1.0,-29.987,M,0.000,M,0.7,*75
$GPGGA,183701.80,3724.8859883,N,12200.1107350,W,4,19,1.0,-29.985,M,0.000,M,0.8,*7F
$GPGGA,183701.90,3724.8859876,N,12200.1107355,W,4,19,1.0,-29.984,M,0.000,M,0.9,*71
$GPGGA,183702.00,3724.8859867,N,12200.1107352,W,4,19,1.0,-29.983,M,0.000,M,0.0,*72
$GPGGA,183702.10,3724.8859868,N,12200.1107354,W,4,19,1.0,-29.983,M,0.000,M,0.1,*7B
$GPGGA,183702.20,3724.8859869,N,12200.1107360,W,4,19,1.0,-29.984,M,0.000,M,0.2,*7A
$GPGGA,183702.30,3724.8859872,N,12200.1107358,W,4,19,1.0,-29.984,M,0.000,M,0.3,*7B
$GPGGA,183702.40,3724.8859869,N,12200.1107353,W,4,19,1.0,-29.983,M,0.000,M,0.4,*7D
$GPGGA,183702.50,3724.8859868,N,12200.1107355,W,4,19,1.0,-29.981,M,0.000,M,0.5,*78
$GPGGA,183702.60,3724.8859859,N,12200.1107365,W,4,19,1.0,-29.981,M,0.000,M,0.6,*79
$GPGGA,183702.70,3724.8859868,N,12200.1107362,W,4,19,1.0,-29.979,M,0.000,M,0.7,*7B
$GPGGA,183702.80,3724.8859877,N,12200.1107352,W,4,19,1.0,-29.981,M,0.000,M,0.8,*71
$GPGGA,183702.90,3724.8859875,N,12200.1107355,W,4,19,1.0,-29.983,M,0.000,M,0.9,*76
$GPGGA,183703.00,3724.8859871,N,12200.1107356,W,4,19,1.0,-29.985,M,0.000,M,0.0,*76
$GPGGA,183703.10,3724.8859861,N,12200.1107365,W,4,19,1.0,-29.984,M,0.000,M,0.1,*76
$GPGGA,183703.20,3724.8859868,N,12200.1107362,W,4,19,1.0,-29.983,M,0.000,M,0.2,*7F
$GPGGA,183703.30,3724.8859870,N,12200.1107358,W,4,19,1.0,-29.984,M,0.000,M,0.3,*78
$GPGGA,183703.40,3724.8859874,N,12200.1107356,W,4,19,1.0,-29.984,M,0.000,M,0.4,*72
$GPGGA,183703.50,3724.8859874,N,12200.1107363,W,4,19,1.0,-29.986,M,0.000,M,0.5,*76
$GPGGA,183703.60,3724.8859867,N,12200.1107365,W,4,19,1.0,-29.986,M,0.000,M,0.6,*72
$GPGGA,183703.70,3724.8859873,N,12200.1107368,W,4,19,1.0,-29.985,M,0.000,M,0.7,*79
$GPGGA,183703.80,3724.8859867,N,12200.1107381,W,4,19,1.0,-29.986,M,0.000,M,0.8,*78
$GPGGA,183703.90,3724.8859869,N,12200.1107378,W,4,19,1.0,-29.983,M,0.000,M,0.9,*75
$GPGGA,183704.00,3724.8859874,N,12200.1107359,W,4,19,1.0,-29.983,M,0.000,M,0.0,*7D
$GPGGA,183704.10,3724.8859873,N,12200.1107364,W,4,19,1.0,-29.982,M,0.000,M,0.1,*75
$GPGGA,183704.20,3724.8859862,N,12200.1107354,W,4,19,1.0,-29.982,M,0.000,M,0.2,*76
$GPGGA,183704.30,3724.8859874,N,12200.1107354,W,4,19,1.0,-29.980,M,0.000,M,0.3,*73
$GPGGA,183704.40,3724.8859876,N,12200.1107356,W,4,19,1.0,-29.981,M,0.000,M,0.4,*72
$GPGGA,183704.50,3724.8859882,N,12200.1107359,W,4,19,1.0,-29.983,M,0.000,M,0.5,*74
$GPGGA,183704.60,3724.8859875,N,12200.1107353,W,4,19,1.0,-29.984,M,0.000,M,0.6,*71
$GPGGA,183704.70,3724.8859871,N,12200.1107361,W,4,19,1.0,-29.982,M,0.000,M,0.7,*72
$GPGGA,183704.80,3724.8859876,N,12200.1107369,W,4,19,1.0,-29.983,M,0.000,M,0.8,*7C
$GPGGA,183704.90,3724.8859876,N,12200.1107360,W,4,19,1.0,-29.982,M,0.000,M,0.9,*74
$GPGGA,183705.00,3724.8859872,N,12200.1107351,W,4,19,1.0,-29.981,M,0.000,M,0.0,*70
$GPGGA,183705.10,3724.8859876,N,12200.1107352,W,4,19,1.0,-29.983,M,0.000,M,0.1,*75
$GPGGA,183705.20,3724.8859877,N,12200.1107356,W,4,19,1.0,-29.987,M,0.000,M,0.2,*74
$GPGGA,183705.30,3724.8859878,N,12200.1107360,W,4,19,1.0,-29.985,M,0.000,M,0.3,*7C
$GPGGA,183705.40,3724.8859875,N,12200.1107358,W,4,19,1.0,-29.986,M,0.000,M,0.4,*79
$GPGGA,183705.50,3724.8859884,N,12200.1107359,W,4,19,1.0,-29.988,M,0.000,M,0.5,*78
$GPGGA,183705.60,3724.8859885,N,12200.1107363,W,4,19,1.0,-29.988,M,0.000,M,0.6,*70
$GPGGA,183705.70,3724.8859873,N,12200.1107361,W,4,19,1.0,-29.985,M,0.000,M,0.7,*76
$GPGGA,183705.80,3724.8859873,N,12200.1107364,W,4,19,1.0,-29.984,M,0.000,M,0.8,*72
$GPGGA,183705.90,3724.8859879,N,12200.1107372,W,4,19,1.0,-29.985,M,0.000,M,0.9,*7E
$GPGGA,183706.00,3724.8859883,N,12200.1107360,W,4,19,1.0,-29.984,M,0.000,M,0.0,*7A
$GPGGA,183706.10,3724.8859873,N,12200.1107353,W,4,19,1.0,-29.986,M,0.000,M,0.1,*77
$GPGGA,183706.20,3724.8859878,N,12200.1107354,W,4,19,1.0,-29.988,M,0.000,M,0.2,*75
$GPGGA,183706.30,3724.8859877,N,12200.1107364,W,4,19,1.0,-29.985,M,0.000,M,0.3,*74
$GPGGA,183706.40,3724.8859874,N,12200.1107366,W,4,19,1.0,-29.984,M,0.000,M,0.4,*74
$GPGGA,183706.50,3724.8859870,N,12200.1107368,W,4,19,1.0,-29.984,M,0.000,M,0.5,*7E
$GPGGA,183706.60,3724.8859873,N,12200.1107366,W,4,19,1.0,-29.983,M,0.000,M,0.6,*74
$GPGGA,183706.70,3724.8859866,N,12200.1107360,W,4,19,1.0,-29.983,M,0.000,M,0.7,*76
$GPGGA,183706.80,3724.8859872,N,12200.1107363,W,4,19,1.0,-29.984,M,0.000,M,0.8,*77
$GPGGA,183706.90,3724.8859873,N,12200.1107370,W,4,19,1.0,-29.985,M,0.000,M,0.9,*75
$GPGGA,183707.00,3724.8859868,N,12200.1107359,W,4,19,1.0,-29.986,M,0.000,M,0.0,*76
$GPGGA,183707.10,3724.8859869,N,12200.1107347,W,4,19,1.0,-29.983,M,0.000,M,0.1,*7D
$GPGGA,183707.20,3724.8859869,N,12200.1107361,W,4,19,1.0,-29.983,M,0.000,M,0.2,*79
$GPGGA,183707.30,3724.8859873,N,12200.1107362,W,4,19,1.0,-29.984,M,0.000,M,0.3,*76
$GPGGA,183707.40,3724.8859871,N,12200.1107360,W,4,19,1.0,-29.983,M,0.000,M,0.4,*71
$GPGGA,183707.50,3724.8859873,N,12200.1107361,W,4,19,1.0,-29.985,M,0.000,M,0.5,*74
$GPGGA,183707.60,3724.8859876,N,12200.1107365,W,4,19,1.0,-29.981,M,0.000,M,0.6,*71
$GPGGA,183707.70,3724.8859880,N,12200.1107360,W,4,19,1.0,-29.981,M,0.000,M,0.7,*7D
$GPGGA,183707.80,3724.8859872,N,12200.1107362,W,4,19,1.0,-29.983,M,0.000,M,0.8,*70
$GPGGA,183707.90,3724.8859872,N,12200.1107365,W,4,19,1.0,-29.982,M,0.000,M,0.9,*76
$GPGGA,183708.00,3724.8859879,N,12200.1107359,W,4,19,1.0,-29.984,M,0.000,M,0.0,*7B
$GPGGA,183708.10,3724.8859876,N,12200.1107353,W,4,19,1.0,-29.984,M,0.000,M,0.1,*7E
$GPGGA,183708.20,3724.8859877,N,12200.1107359,W,4,19,1.0,-29.983,M,0.000,M,0.2,*72
$GPGGA,183708.30,3724.8859873,N,12200.1107358,W,4,19,1.0,-29.982,M,0.000,M,0.3,*76
$GPGGA,183708.40,3724.8859873,N,12200.1107355,W,4,19,1.0,-29.983,M,0.000,M,0.4,*7A
$GPGGA,183708.50,3724.8859872,N,12200.1107360,W,4,19,1.0,-29.983,M,0.000,M,0.5,*7D
$GPGGA,183708.60,3724.8859875,N,12200.1107360,W,4,19,1.0,-29.984,M,0.000,M,0.6,*7D
$GPGGA,183708.70,3724.8859875,N,12200.1107364,W,4,19,1.0,-29.984,M,0.000,M,0.7,*79
$GPGGA,183708.80,3724.8859875,N,12200.1107365,W,4,19,1.0,-29.984,M,0.000,M,0.8,*78
$GPGGA,183708.90,3724.8859877,N,12200.1107361,W,4,19,1.0,-29.984,M,0.000,M,0.9,*7E
$GPGGA,183709.00,3724.8859874,N,12200.1107358,W,4,19,1.0,-29.985,M,0.000,M,0.0,*77
$GPGGA,183709.10,3724.8859873,N,12200.1107359,W,4,19,1.0,-29.986,M,0.000,M,0.1,*72
$GPGGA,183709.20,3724.8859865,N,12200.1107365,W,4,19,1.0,-29.984,M,0.000,M,0.2,*78
$GPGGA,183709.30,3724.8859873,N,12200.1107362,W,4,19,1.0,-29.984,M,0.000,M,0.3,*78
$GPGGA,183709.40,3724.8859873,N,12200.1107364,W,4,19,1.0,-29.985,M,0.000,M,0.4,*7F
$GPGGA,183709.50,3724.8859875,N,12200.1107363,W,4,19,1.0,-29.983,M,0.000,M,0.5,*78
$GPGGA,183709.60,3724.8859873,N,12200.1107360,W,4,19,1.0,-29.982,M,0.000,M,0.6,*7C
$GPGGA,183709.70,3724.8859876,N,12200.1107367,W,4,19,1.0,-29.982,M,0.000,M,0.7,*7E
$GPGGA,183709.80,3724.8859879,N,12200.1107366,W,4,19,1.0,-29.983,M,0.000,M,0.8,*71
$GPGGA,183709.90,3724.8859873,N,12200.1107367,W,4,19,1.0,-29.982,M,0.000,M,0.9,*7B
$GPGGA,183710.00,3724.8859870,N,12200.1107359,W,4,19,1.0,-29.985,M,0.000,M,0.0,*7A
$GPGGA,183710.10,3724.8859867,N,12200.1107357,W,4,19,1.0,-29.987,M,0.000,M,0.1,*70
$GPGGA,183710.20,3724.8859869,N,12200.1107357,W,4,19,1.0,-29.986,M,0.000,M,0.2,*7F
$GPGGA,183710.30,3724.8859867,N,12200.1107359,W,4,19,1.0,-29.985,M,0.000,M,0.3,*7C
$GPGGA,183710.40,3724.8859868,N,12200.1107366,W,4,19,1.0,-29.982,M,0.000,M,0.4,*78
$GPGGA,183710.50,3724.8859872,N,12200.1107368,W,4,19,1.0,-29.983,M,0.000,M,0.5,*7C
$GPGGA,183710.60,3724.8859869,N,12200.1107371,W,4,19,1.0,-29.985,M,0.000,M,0.6,*78
$GPGGA,183710.70,3724.8859874,N,12200.1107371,W,4,19,1.0,-29.986,M,0.000,M,0.7,*77
$GPGGA,183710.80,3724.8859869,N,12200.1107371,W,4,19,1.0,-29.986,M,0.000,M,0.8,*7B
$GPGGA,183710.90,3724.8859871,N,12200.1107360,W,4,19,1.0,-29.984,M,0.000,M,0.9,*70
$GPGGA,183711.00,3724.8859866,N,12200.1107354,W,4,19,1.0,-29.983,M,0.000,M,0.0,*77
$GPGGA,183711.10,3724.8859864,N,12200.1107350,W,4,19,1.0,-29.984,M,0.000,M,0.1,*76
$GPGGA,183711.20,3724.8859860,N,12200.1107354,W,4,19,1.0,-29.982,M,0.000,M,0.2,*70
$GPGGA,183711.30,3724.8859865,N,12200.1107358,W,4,19,1.0,-29.980,M,0.000,M,0.3,*7B
$GPGGA,183711.40,3724.8859865,N,12200.1107361,W,4,19,1.0,-29.980,M,0.000,M,0.4,*71
$GPGGA,183711.50,3724.8859871,N,12200.1107364,W,4,19,1.0,-29.984,M,0.000,M,0.5,*75
$GPGGA,183711.60,3724.8859869,N,12200.1107358,W,4,19,1.0,-29.984,M,0.000,M,0.6,*73
$GPGGA,183711.70,3724.8859869,N,12200.1107362,W,4,19,1.0,-29.984,M,0.000,M,0.7,*7A
$GPGGA,183711.80,3724.8859871,N,12200.1107362,W,4,19,1.0,-29.985,M,0.000,M,0.8,*72
$GPGGA,183711.90,3724.8859874,N,12200.1107362,W,4,19,1.0,-29.983,M,0.000,M,0.9,*71
$GPGGA,183712.00,3724.8859873,N,12200.1107366,W,4,19,1.0,-29.984,M,0.000,M,0.0,*76
$GPGGA,183712.10,3724.8859870,N,12200.1107364,W,4,19,1.0,-29.984,M,0.000,M,0.1,*77
$GPGGA,183712.20,3724.8859863,N,12200.1107365,W,4,19,1.0,-29.986,M,0.000,M,0.2,*76
$GPGGA,183712.30,3724.8859834,N,12200.1107363,W,4,19,1.0,-29.990,M,0.000,M,0.3,*75
$GPGGA,183712.40,3724.8859861,N,12200.1107367,W,4,19,1.0,-29.989,M,0.000,M,0.4,*79
$GPGGA,183712.50,3724.8859873,N,12200.1107366,W,4,19,1.0,-29.988,M,0.000,M,0.5,*7A
$GPGGA,183712.60,3724.8859873,N,12200.1107368,W,4,19,1.0,-29.985,M,0.000,M,0.6,*79
$GPGGA,183712.70,3724.8859873,N,12200.1107374,W,4,19,1.0,-29.983,M,0.000,M,0.7,*72
$GPGGA,183712.80,3724.8859878,N,12200.1107377,W,4,19,1.0,-29.985,M,0.000,M,0.8,*7C
$GPGGA,183712.90,3724.8859882,N,12200.1107376,W,4,19,1.0,-29.986,M,0.000,M,0.9,*7B
$GPGGA,183713.00,3724.8859873,N,12200.1107364,W,4,19,1.0,-29.986,M,0.000,M,0.0,*77
$GPGGA,183713.10,3724.8859874,N,12200.1107355,W,4,19,1.0,-29.988,M,0.000,M,0.1,*7C
$GPGGA,183713.20,3724.8859875,N,12200.1107368,W,4,19,1.0,-29.987,M,0.000,M,0.2,*7C
$GPGGA,183713.30,3724.8859876,N,12200.1107366,W,4,19,1.0,-29.988,M,0.000,M,0.3,*7E
$GPGGA,183713.40,3724.8859875,N,12200.1107364,W,4,19,1.0,-29.987,M,0.000,M,0.4,*70
$GPGGA,183713.50,3724.8859878,N,12200.1107376,W,4,19,1.0,-29.987,M,0.000,M,0.5,*7E
$GPGGA,183713.60,3724.8859880,N,12200.1107369,W,4,19,1.0,-29.988,M,0.000,M,0.6,*78
$GPGGA,183713.70,3724.8859880,N,12200.1107371,W,4,19,1.0,-29.989,M,0.000,M,0.7,*70
$GPGGA,183713.80,3724.8859877,N,12200.1107373,W,4,19,1.0,-29.988,M,0.000,M,0.8,*7B
$GPGGA,183713.90,3724.8859880,N,12200.1107376,W,4,19,1.0,-29.987,M,0.000,M,0.9,*79
$GPGGA,183714.00,3724.8859875,N,12200.1107360,W,4,19,1.0,-29.986,M,0.000,M,0.0,*72
$GPGGA,183714.10,3724.8859871,N,12200.1107353,W,4,19,1.0,-29.987,M,0.000,M,0.1,*77
$GPGGA,183714.20,3724.8859873,N,12200.1107353,W,4,19,1.0,-29.985,M,0.000,M,0.2,*77
$GPGGA,183714.30,3724.8859867,N,12200.1107358,W,4,19,1.0,-29.988,M,0.000,M,0.3,*74
$GPGGA,183714.40,3724.8859869,N,12200.1107366,W,4,19,1.0,-29.988,M,0.000,M,0.4,*77
$GPGGA,183714.50,3724.8859874,N,12200.1107367,W,4,19,1.0,-29.984,M,0.000,M,0.5,*76
$GPGGA,183714.60,3724.8859878,N,12200.1107368,W,4,19,1.0,-29.984,M,0.000,M,0.6,*75
$GPGGA,183714.70,3724.8859881,N,12200.1107363,W,4,19,1.0,-29.984,M,0.000,M,0.7,*78
$GPGGA,183714.80,3724.8859869,N,12200.1107372,W,4,19,1.0,-29.984,M,0.000,M,0.8,*7E
$GPGGA,183714.90,3724.8859876,N,12200.1107369,W,4,19,1.0,-29.986,M,0.000,M,0.9,*78
$GPGGA,183715.00,3724.8859882,N,12200.1107359,W,4,19,1.0,-29.985,M,0.000,M,0.0,*72
$GPGGA,183715.10,3724.8859876,N,12200.1107359,W,4,19,1.0,-29.986,M,0.000,M,0.1,*7A
$GPGGA,183715.20,3724.8859876,N,12200.1107365,W,4,19,1.0,-29.984,M,0.000,M,0.2,*77
$GPGGA,183715.30,3724.8859871,N,12200.1107364,W,4,19,1.0,-29.985,M,0.000,M,0.3,*70
$GPGGA,183715.40,3724.8859870,N,12200.1107359,W,4,19,1.0,-29.985,M,0.000,M,0.4,*7F
$GPGGA,183715.50,3724.8859878,N,12200.1107359,W,4,19,1.0,-29.986,M,0.000,M,0.5,*74
$GPGGA,183715.60,3724.8859880,N,12200.1107369,W,4,19,1.0,-29.986,M,0.000,M,0.6,*70
$GPGGA,183715.70,3724.8859886,N,12200.1107367,W,4,19,1.0,-29.987,M,0.000,M,0.7,*79
$GPGGA,183715.80,3724.8859882,N,12200.1107378,W,4,19,1.0,-29.987,M,0.000,M,0.8,*73
$GPGGA,183715.90,3724.8859877,N,12200.1107381,W,4,19,1.0,-29.989,M,0.000,M,0.9,*71
$GPGGA,183716.00,3724.8859873,N,12200.1107366,W,4,19,1.0,-29.988,M,0.000,M,0.0,*7E
$GPGGA,183716.10,3724.8859874,N,12200.1107362,W,4,19,1.0,-29.986,M,0.000,M,0.1,*73
$GPGGA,183716.20,3724.8859866,N,12200.1107365,W,4,19,1.0,-29.983,M,0.000,M,0.2,*72
$GPGGA,183716.30,3724.8859867,N,12200.1107364,W,4,19,1.0,-29.982,M,0.000,M,0.3,*73
$GPGGA,183716.40,3724.8859869,N,12200.1107368,W,4,19,1.0,-29.983,M,0.000,M,0.4,*70
$GPGGA,183716.50,3724.8859874,N,12200.1107373,W,4,19,1.0,-29.984,M,0.000,M,0.5,*71
$GPGGA,183716.60,3724.8859873,N,12200.1107374,W,4,19,1.0,-29.981,M,0.000,M,0.6,*74
$GPGGA,183716.70,3724.8859874,N,12200.1107369,W,4,19,1.0,-29.985,M,0.000,M,0.7,*7B
$GPGGA,183716.80,3724.8859875,N,12200.1107371,W,4,19,1.0,-29.986,M,0.000,M,0.8,*70
$GPGGA,183716.90,3724.8859875,N,12200.1107379,W,4,19,1.0,-29.987,M,0.000,M,0.9,*79
$GPGGA,183717.00,3724.8859875,N,12200.1107359,W,4,19,1.0,-29.986,M,0.000,M,0.0,*7B
$GPGGA,183717.10,3724.8859881,N,12200.1107362,W,4,19,1.0,-29.986,M,0.000,M,0.1,*78
$GPGGA,183717.20,3724.8859871,N,12200.1107361,W,4,19,1.0,-29.985,M,0.000,M,0.2,*77
$GPGGA,183717.30,3724.8859875,N,12200.1107360,W,4,19,1.0,-29.983,M,0.000,M,0.3,*74
$GPGGA,183717.40,3724.8859866,N,12200.1107361,W,4,19,1.0,-29.985,M,0.000,M,0.4,*71
$GPGGA,183717.50,3724.8859865,N,12200.1107365,W,4,19,1.0,-29.985,M,0.000,M,0.5,*76
$GPGGA,183717.60,3724.8859876,N,12200.1107379,W,4,19,1.0,-29.985,M,0.000,M,0.6,*79
$GPGGA,183717.70,3724.8859876,N,12200.1107369,W,4,19,1.0,-29.986,M,0.000,M,0.7,*7B
$GPGGA,183717.80,3724.8859877,N,12200.1107374,W,4,19,1.0,-29.986,M,0.000,M,0.8,*76
$GPGGA,183717.90,3724.8859877,N,12200.1107375,W,4,19,1.0,-29.984,M,0.000,M,0.9,*75
$GPGGA,183718.00,3724.8859875,N,12200.1107359,W,4,19,1.0,-29.984,M,0.000,M,0.0,*76
$GPGGA,183718.10,3724.8859884,N,12200.1107356,W,4,19,1.0,-29.985,M,0.000,M,0.1,*76
$GPGGA,183718.20,3724.8859882,N,12200.1107365,W,4,19,1.0,-29.984,M,0.000,M,0.2,*71
$GPGGA,183718.30,3724.8859876,N,12200.1107364,W,4,19,1.0,-29.984,M,0.000,M,0.3,*7B
$GPGGA,183718.40,3724.8859877,N,12200.1107367,W,4,19,1.0,-29.983,M,0.000,M,0.4,*7E
$GPGGA,183718.50,3724.8859871,N,12200.1107368,W,4,19,1.0,-29.984,M,0.000,M,0.5,*70
$GPGGA,183718.60,3724.8859878,N,12200.1107376,W,4,19,1.0,-29.984,M,0.000,M,0.6,*76
$GPGGA,183718.70,3724.8859887,N,12200.1107375,W,4,19,1.0,-29.985,M,0.000,M,0.7,*74
$GPGGA,183718.80,3724.8859880,N,12200.1107372,W,4,19,1.0,-29.984,M,0.000,M,0.8,*75
$GPGGA,183718.90,3724.8859889,N,12200.1107373,W,4,19,1.0,-29.984,M,0.000,M,0.9,*7D
$GPGGA,183719.00,3724.8859875,N,12200.1107362,W,4,19,1.0,-29.984,M,0.000,M,0.0,*7F
$GPGGA,183719.10,3724.8859873,N,12200.1107364,W,4,19,1.0,-29.986,M,0.000,M,0.1,*7D
$GPGGA,183719.20,3724.8859868,N,12200.1107362,W,4,19,1.0,-29.985,M,0.000,M,0.2,*72
$GPGGA,183719.30,3724.8859864,N,12200.1107369,W,4,19,1.0,-29.983,M,0.000,M,0.3,*73
$GPGGA,183719.40,3724.8859869,N,12200.1107375,W,4,19,1.0,-29.984,M,0.000,M,0.4,*74
$GPGGA,183719.50,3724.8859874,N,12200.1107377,W,4,19,1.0,-29.984,M,0.000,M,0.5,*7A
$GPGGA,183719.60,3724.8859871,N,12200.1107369,W,4,19,1.0,-29.987,M,0.000,M,0.6,*73
$GPGGA,183719.70,3724.8859877,N,12200.1107369,W,4,19,1.0,-29.985,M,0.000,M,0.7,*77
$GPGGA,183719.80,3724.8859881,N,12200.1107371,W,4,19,1.0,-29.985,M,0.000,M,0.8,*77
$GPGGA,183719.90,3724.8859882,N,12200.1107377,W,4,19,1.0,-29.985,M,0.000,M,0.9,*72
$GPGGA,183720.00,3724.8859874,N,12200.1107359,W,4,19,1.0,-29.985,M,0.000,M,0.0,*7D
$GPGGA,183720.10,3724.8859866,N,12200.1107364,W,4,19,1.0,-29.982,M,0.000,M,0.1,*77
$GPGGA,183720.20,3724.8859873,N,12200.1107360,W,4,19,1.0,-29.984,M,0.000,M,0.2,*71
$GPGGA,183720.30,3724.8859873,N,12200.1107360,W,4,19,1.0,-29.981,M,0.000,M,0.3,*74
$GPGGA,183720.40,3724.8859879,N,12200.1107364,W,4,19,1.0,-29.980,M,0.000,M,0.4,*7B
$GPGGA,183720.50,3724.8859877,N,12200.1107369,W,4,19,1.0,-29.982,M,0.000,M,0.5,*7A
$GPGGA,183720.60,3724.8859871,N,12200.1107375,W,4,19,1.0,-29.983,M,0.000,M,0.6,*70
$GPGGA,183720.70,3724.8859866,N,12200.1107370,W,4,19,1.0,-29.983,M,0.000,M,0.7,*73
$GPGGA,183720.80,3724.8859872,N,12200.1107369,W,4,19,1.0,-29.984,M,0.000,M,0.8,*79
$GPGGA,183720.90,3724.8859881,N,12200.1107376,W,4,19,1.0,-29.986,M,0.000,M,0.9,*79
$GPGGA,183721.00,3724.8859872,N,12200.1107369,W,4,19,1.0,-29.986,M,0.000,M,0.0,*7A
$GPGGA,183721.10,3724.8859871,N,12200.1107367,W,4,19,1.0,-29.985,M,0.000,M,0.1,*74
$GPGGA,183721.20,3724.8859874,N,12200.1107365,W,4,19,1.0,-29.984,M,0.000,M,0.2,*72
$GPGGA,183721.30,3724.8859872,N,12200.1107364,W,4,19,1.0,-29.986,M,0.000,M,0.3,*77
$GPGGA,183721.40,3724.8859871,N,12200.1107362,W,4,19,1.0,-29.986,M,0.000,M,0.4,*72
$GPGGA,183721.50,3724.8859867,N,12200.1107361,W,4,19,1.0,-29.985,M,0.000,M,0.5,*75
$GPGGA,183721.60,3724.8859874,N,12200.1107367,W,4,19,1.0,-29.983,M,0.000,M,0.6,*77
$GPGGA,183721.70,3724.8859871,N,12200.1107372,W,4,19,1.0,-29.984,M,0.000,M,0.7,*71
$GPGGA,183721.80,3724.8859880,N,12200.1107377,W,4,19,1.0,-29.985,M,0.000,M,0.8,*7B
$GPGGA,183721.90,3724.8859887,N,12200.1107371,W,4,19,1.0,-29.986,M,0.000,M,0.9,*79
$GPGGA,183722.00,3724.8859886,N,12200.1107357,W,4,19,1.0,-29.985,M,0.000,M,0.0,*7C
$GPGGA,183722.10,3724.8859876,N,12200.1107357,W,4,19,1.0,-29.985,M,0.000,M,0.1,*73
$GPGGA,183722.20,3724.8859869,N,12200.1107366,W,4,19,1.0,-29.986,M,0.000,M,0.2,*7C
$GPGGA,183722.30,3724.8859876,N,12200.1107369,W,4,19,1.0,-29.987,M,0.000,M,0.3,*7C
$GPGGA,183722.40,3724.8859875,N,12200.1107370,W,4,19,1.0,-29.986,M,0.000,M,0.4,*76
$GPGGA,183722.50,3724.8859871,N,12200.1107365,W,4,19,1.0,-29.985,M,0.000,M,0.5,*75
$GPGGA,183722.60,3724.8859875,N,12200.1107361,W,4,19,1.0,-29.984,M,0.000,M,0.6,*74
$GPGGA,183722.70,3724.8859874,N,12200.1107361,W,4,19,1.0,-29.983,M,0.000,M,0.7,*72
$GPGGA,183722.80,3724.8859876,N,12200.1107363,W,4,19,1.0,-29.985,M,0.000,M,0.8,*74
$GPGGA,183722.90,3724.8859879,N,12200.1107368,W,4,19,1.0,-29.986,M,0.000,M,0.9,*73
$GPGGA,183723.00,3724.8859876,N,12200.1107370,W,4,19,1.0,-29.986,M,0.000,M,0.0,*74
$GPGGA,183723.10,3724.8859868,N,12200.1107364,W,4,19,1.0,-29.985,M,0.000,M,0.1,*7D
$GPGGA,183723.20,3724.8859876,N,12200.1107362,W,4,19,1.0,-29.988,M,0.000,M,0.2,*79
$GPGGA,183723.30,3724.8859878,N,12200.1107370,W,4,19,1.0,-29.989,M,0.000,M,0.3,*75
$GPGGA,183723.40,3724.8859881,N,12200.1107364,W,4,19,1.0,-29.987,M,0.000,M,0.4,*78
$GPGGA,183723.50,3724.8859876,N,12200.1107368,W,4,19,1.0,-29.985,M,0.000,M,0.5,*7E
$GPGGA,183723.60,3724.8859876,N,12200.1107372,W,4,19,1.0,-29.985,M,0.000,M,0.6,*75
$GPGGA,183723.70,3724.8859883,N,12200.1107372,W,4,19,1.0,-29.988,M,0.000,M,0.7,*72
$GPGGA,183723.80,3724.8859884,N,12200.1107374,W,4,19,1.0,-29.988,M,0.000,M,0.8,*73
$GPGGA,183723.90,3724.8859883,N,12200.1107380,W,4,19,1.0,-29.986,M,0.000,M,0.9,*71
$GPGGA,183724.00,3724.8859876,N,12200.1107363,W,4,19,1.0,-29.985,M,0.000,M,0.0,*72
$GPGGA,183724.10,3724.8859870,N,12200.1107358,W,4,19,1.0,-29.986,M,0.000,M,0.1,*7F
$GPGGA,183724.20,3724.8859879,N,12200.1107360,W,4,19,1.0,-29.987,M,0.000,M,0.2,*7C
$GPGGA,183724.30,3724.8859876,N,12200.1107361,W,4,19,1.0,-29.984,M,0.000,M,0.3,*71
$GPGGA,183724.40,3724.8859879,N,12200.1107365,W,4,19,1.0,-29.981,M,0.000,M,0.4,*7F
$GPGGA,183724.50,3724.8859881,N,12200.1107363,W,4,19,1.0,-29.984,M,0.000,M,0.5,*7B
$GPGGA,183724.60,3724.8859874,N,12200.1107368,W,4,19,1.0,-29.984,M,0.000,M,0.6,*7A
$GPGGA,183724.70,3724.8859872,N,12200.1107372,W,4,19,1.0,-29.987,M,0.000,M,0.7,*74
$GPGGA,183724.80,3724.8859871,N,12200.1107376,W,4,19,1.0,-29.987,M,0.000,M,0.8,*73
$GPGGA,183724.90,3724.8859877,N,12200.1107380,W,4,19,1.0,-29.986,M,0.000,M,0.9,*7D
$GPGGA,183725.00,3724.8859875,N,12200.1107362,W,4,19,1.0,-29.986,M,0.000,M,0.0,*72
$GPGGA,183725.10,3724.8859870,N,12200.1107351,W,4,19,1.0,-29.987,M,0.000,M,0.1,*76
$GPGGA,183725.20,3724.8859876,N,12200.1107360,W,4,19,1.0,-29.985,M,0.000,M,0.2,*70
$GPGGA,183725.30,3724.8859876,N,12200.1107364,W,4,19,1.0,-29.985,M,0.000,M,0.3,*74
$GPGGA,183725.40,3724.8859874,N,12200.1107367,W,4,19,1.0,-29.982,M,0.000,M,0.4,*72
$GPGGA,183725.50,3724.8859871,N,12200.1107369,W,4,19,1.0,-29.980,M,0.000,M,0.5,*7B
$GPGGA,183725.60,3724.8859873,N,12200.1107362,W,4,19,1.0,-29.982,M,0.000,M,0.6,*70
$GPGGA,183725.70,3724.8859882,N,12200.1107370,W,4,19,1.0,-29.985,M,0.000,M,0.7,*7A
$GPGGA,183725.80,3724.8859876,N,12200.1107376,W,4,19,1.0,-29.985,M,0.000,M,0.8,*77
$GPGGA,183725.90,3724.8859875,N,12200.1107357,W,4,19,1.0,-29.984,M,0.000,M,0.9,*76
$GPGGA,183726.00,3724.8859877,N,12200.1107346,W,4,19,1.0,-29.985,M,0.000,M,0.0,*76
$GPGGA,183726.10,3724.8859871,N,12200.1107358,W,4,19,1.0,-29.983,M,0.000,M,0.1,*79
$GPGGA,183726.20,3724.8859871,N,12200.1107361,W,4,19,1.0,-29.982,M,0.000,M,0.2,*72
$GPGGA,183726.30,3724.8859881,N,12200.1107365,W,4,19,1.0,-29.984,M,0.000,M,0.3,*7F
$GPGGA,183726.40,3724.8859881,N,12200.1107363,W,4,19,1.0,-29.986,M,0.000,M,0.4,*7B
$GPGGA,183726.50,3724.8859888,N,12200.1107367,W,4,19,1.0,-29.984,M,0.000,M,0.5,*74
$GPGGA,183726.60,3724.8859885,N,12200.1107372,W,4,19,1.0,-29.983,M,0.000,M,0.6,*7A
$GPGGA,183726.70,3724.8859881,N,12200.1107369,W,4,19,1.0,-29.983,M,0.000,M,0.7,*74
$GPGGA,183726.80,3724.8859881,N,12200.1107370,W,4,19,1.0,-29.985,M,0.000,M,0.8,*7A
$GPGGA,183726.90,3724.8859880,N,12200.1107377,W,4,19,1.0,-29.984,M,0.000,M,0.9,*7D
$GPGGA,183727.00,3724.8859873,N,12200.1107365,W,4,19,1.0,-29.980,M,0.000,M,0.0,*77
$GPGGA,183727.10,3724.8859876,N,12200.1107359,W,4,19,1.0,-29.985,M,0.000,M,0.1,*78
$GPGGA,183727.20,3724.8859874,N,12200.1107358,W,4,19,1.0,-29.985,M,0.000,M,0.2,*7B
$GPGGA,183727.30,3724.8859876,N,12200.1107357,W,4,19,1.0,-29.983,M,0.000,M,0.3,*70
$GPGGA,183727.40,3724.8859877,N,12200.1107364,W,4,19,1.0,-29.982,M,0.000,M,0.4,*70
$GPGGA,183727.50,3724.8859877,N,12200.1107372,W,4,19,1.0,-29.980,M,0.000,M,0.5,*75
$GPGGA,183727.60,3724.8859879,N,12200.1107368,W,4,19,1.0,-29.982,M,0.000,M,0.6,*72
$GPGGA,183727.70,3724.8859874,N,12200.1107372,W,4,19,1.0,-29.982,M,0.000,M,0.7,*74
$GPGGA,183727.80,3724.8859865,N,12200.1107373,W,4,19,1.0,-29.985,M,0.000,M,0.8,*72
$GPGGA,183727.90,3724.8859876,N,12200.1107372,W,4,19,1.0,-29.986,M,0.000,M,0.9,*72
$GPGGA,183728.00,3724.8859873,N,12200.1107373,W,4,19,1.0,-29.988,M,0.000,M,0.0,*77
$GPGGA,183728.10,3724.8859875,N,12200.1107370,W,4,19,1.0,-29.987,M,0.000,M,0.1,*7D
$GPGGA,183728.20,3724.8859871,N,12200.1107366,W,4,19,1.0,-29.985,M,0.000,M,0.2,*7C
$GPGGA,183728.30,3724.8859875,N,12200.1107362,W,4,19,1.0,-29.984,M,0.000,M,0.3,*7D
$GPGGA,183728.40,3724.8859872,N,12200.1107363,W,4,19,1.0,-29.982,M,0.000,M,0.4,*7D
$GPGGA,183728.50,3724.8859862,N,12200.1107366,W,4,19,1.0,-29.982,M,0.000,M,0.5,*79
$GPGGA,183728.60,3724.8859876,N,12200.1107373,W,4,19,1.0,-29.982,M,0.000,M,0.6,*78
$GPGGA,183728.70,3724.8859870,N,12200.1107377,W,4,19,1.0,-29.982,M,0.000,M,0.7,*7A
$GPGGA,183728.80,3724.8859881,N,12200.1107377,W,4,19,1.0,-29.982,M,0.000,M,0.8,*74
$GPGGA,183728.90,3724.8859872,N,12200.1107384,W,4,19,1.0,-29.984,M,0.000,M,0.9,*72
$GPGGA,183729.00,3724.8859868,N,12200.1107362,W,4,19,1.0,-29.984,M,0.000,M,0.0,*70
$GPGGA,183729.10,3724.8859872,N,12200.1107361,W,4,19,1.0,-29.985,M,0.000,M,0.1,*79
$GPGGA,183729.20,3724.8859869,N,12200.1107358,W,4,19,1.0,-29.987,M,0.000,M,0.2,*7B
$GPGGA,183729.30,3724.8859869,N,12200.1107364,W,4,19,1.0,-29.987,M,0.000,M,0.3,*74
$GPGGA,183729.40,3724.8859876,N,12200.1107366,W,4,19,1.0,-29.985,M,0.000,M,0.4,*7A
$GPGGA,183729.50,3724.8859869,N,12200.1107365,W,4,19,1.0,-29.988,M,0.000,M,0.5,*7A
$GPGGA,183729.60,3724.8859874,N,12200.1107365,W,4,19,1.0,-29.986,M,0.000,M,0.6,*78
$GPGGA,183729.70,3724.8859875,N,12200.1107369,W,4,19,1.0,-29.985,M,0.000,M,0.7,*76
$GPGGA,183729.80,3724.8859871,N,12200.1107376,W,4,19,1.0,-29.985,M,0.000,M,0.8,*7C
$GPGGA,183729.90,3724.8859870,N,12200.1107364,W,4,19,1.0,-29.983,M,0.000,M,0.9,*78
$GPGGA,183730.00,3724.8859860,N,12200.1107355,W,4,19,1.0,-29.983,M,0.000,M,0.0,*73
$GPGGA,183730.10,3724.8859865,N,12200.1107359,W,4,19,1.0,-29.984,M,0.000,M,0.1,*7D
$GPGGA,183730.20,3724.8859866,N,12200.1107365,W,4,19,1.0,-29.983,M,0.000,M,0.2,*76
$GPGGA,183730.30,3724.8859862,N,12200.1107362,W,4,19,1.0,-29.984,M,0.000,M,0.3,*72
$GPGGA,183730.40,3724.8859860,N,12200.1107365,W,4,19,1.0,-29.984,M,0.000,M,0.4,*77
$GPGGA,183730.50,3724.8859872,N,12200.1107372,W,4,19,1.0,-29.983,M,0.000,M,0.5,*75
$GPGGA,183730.60,3724.8859870,N,12200.1107376,W,4,19,1.0,-29.982,M,0.000,M,0.6,*72
$GPGGA,183730.70,3724.8859870,N,12200.1107368,W,4,19,1.0,-29.982,M,0.000,M,0.7,*7D
$GPGGA,183730.80,3724.8859868,N,12200.1107373,W,4,19,1.0,-29.982,M,0.000,M,0.8,*7E
$GPGGA,183730.90,3724.8859869,N,12200.1107377,W,4,19,1.0,-29.984,M,0.000,M,0.9,*7D
$GPGGA,183731.00,3724.8859869,N,12200.1107373,W,4,19,1.0,-29.984,M,0.000,M,0.0,*78
$GPGGA,183731.10,3724.8859874,N,12200.1107361,W,4,19,1.0,-29.986,M,0.000,M,0.1,*75
$GPGGA,183731.20,3724.8859870,N,12200.1107368,W,4,19,1.0,-29.985,M,0.000,M,0.2,*7B
$GPGGA,183731.30,3724.8859870,N,12200.1107369,W,4,19,1.0,-29.986,M,0.000,M,0.3,*79
$GPGGA,183731.40,3724.8859873,N,12200.1107371,W,4,19,1.0,-29.985,M,0.000,M,0.4,*70
$GPGGA,183731.50,3724.8859877,N,12200.1107372,W,4,19,1.0,-29.988,M,0.000,M,0.5,*7A
$GPGGA,183731.60,3724.8859875,N,12200.1107380,W,4,19,1.0,-29.986,M,0.000,M,0.6,*7B
$GPGGA,183731.70,3724.8859875,N,12200.1107372,W,4,19,1.0,-29.985,M,0.000,M,0.7,*75
$GPGGA,183731.80,3724.8859877,N,12200.1107371,W,4,19,1.0,-29.985,M,0.000,M,0.8,*74
$GPGGA,183731.90,3724.8859878,N,12200.1107380,W,4,19,1.0,-29.984,M,0.000,M,0.9,*74
$GPGGA,183732.00,3724.8859865,N,12200.1107368,W,4,19,1.0,-29.983,M,0.000,M,0.0,*7A
$GPGGA,183732.10,3724.8859861,N,12200.1107364,W,4,19,1.0,-29.980,M,0.000,M,0.1,*71
$GPGGA,183732.20,3724.8859862,N,12200.1107361,W,4,19,1.0,-29.981,M,0.000,M,0.2,*76
$GPGGA,183732.30,3724.8859874,N,12200.1107368,W,4,19,1.0,-29.984,M,0.000,M,0.3,*7D
$GPGGA,183732.40,3724.8859869,N,12200.1107368,W,4,19,1.0,-29.986,M,0.000,M,0.4,*73
$GPGGA,183732.50,3724.8859872,N,12200.1107366,W,4,19,1.0,-29.986,M,0.000,M,0.5,*77
$GPGGA,183732.60,3724.8859874,N,12200.1107366,W,4,19,1.0,-29.985,M,0.000,M,0.6,*72
$GPGGA,183732.70,3724.8859877,N,12200.1107360,W,4,19,1.0,-29.983,M,0.000,M,0.7,*71
$GPGGA,183732.80,3724.8859871,N,12200.1107357,W,4,19,1.0,-29.985,M,0.000,M,0.8,*75
$GPGGA,183732.90,3724.8859880,N,12200.1107374,W,4,19,1.0,-29.984,M,0.000,M,0.9,*7B
$GPGGA,183733.00,3724.8859873,N,12200.1107368,W,4,19,1.0,-29.985,M,0.000,M,0.0,*7A
$GPGGA,183733.10,3724.8859866,N,12200.1107364,W,4,19,1.0,-29.983,M,0.000,M,0.1,*74
$GPGGA,183733.20,3724.8859872,N,12200.1107361,W,4,19,1.0,-29.986,M,0.000,M,0.2,*71
$GPGGA,183733.30,3724.8859876,N,12200.1107359,W,4,19,1.0,-29.985,M,0.000,M,0.3,*7D
$GPGGA,183733.40,3724.8859877,N,12200.1107357,W,4,19,1.0,-29.986,M,0.000,M,0.4,*71
$GPGGA,183733.50,3724.8859882,N,12200.1107360,W,4,19,1.0,-29.986,M,0.000,M,0.5,*7F
$GPGGA,183733.60,3724.8859881,N,12200.1107367,W,4,19,1.0,-29.986,M,0.000,M,0.6,*7B
$GPGGA,183733.70,3724.8859877,N,12200.1107370,W,4,19,1.0,-29.987,M,0.000,M,0.7,*75
$GPGGA,183733.80,3724.8859876,N,12200.1107361,W,4,19,1.0,-29.987,M,0.000,M,0.8,*74
$GPGGA,183733.90,3724.8859877,N,12200.1107367,W,4,19,1.0,-29.983,M,0.000,M,0.9,*77
$GPGGA,183734.00,3724.8859870,N,12200.1107366,W,4,19,1.0,-29.982,M,0.000,M,0.0,*77
$GPGGA,183734.10,3724.8859871,N,12200.1107365,W,4,19,1.0,-29.983,M,0.000,M,0.1,*74
$GPGGA,183734.20,3724.8859870,N,12200.1107370,W,4,19,1.0,-29.983,M,0.000,M,0.2,*71
$GPGGA,183734.30,3724.8859867,N,12200.1107365,W,4,19,1.0,-29.985,M,0.000,M,0.3,*75
$GPGGA,183734.40,3724.8859869,N,12200.1107372,W,4,19,1.0,-29.985,M,0.000,M,0.4,*7D
$GPGGA,183734.50,3724.8859866,N,12200.1107368,W,4,19,1.0,-29.986,M,0.000,M,0.5,*7A
$GPGGA,183734.60,3724.8859873,N,12200.1107371,W,4,19,1.0,-29.985,M,0.000,M,0.6,*75
$GPGGA,183734.70,3724.8859867,N,12200.1107367,W,4,19,1.0,-29.981,M,0.000,M,0.7,*73
$GPGGA,183734.80,3724.8859875,N,12200.1107374,W,4,19,1.0,-29.980,M,0.000,M,0.8,*73
$GPGGA,183734.90,3724.8859874,N,12200.1107370,W,4,19,1.0,-29.980,M,0.000,M,0.9,*76
$GPGGA,183735.00,3724.8859870,N,12200.1107373,W,4,19,1.0,-29.983,M,0.000,M,0.0,*73
$GPGGA,183735.10,3724.8859873,N,12200.1107366,W,4,19,1.0,-29.985,M,0.000,M,0.1,*72
$GPGGA,183735.20,3724.8859877,N,12200.1107365,W,4,19,1.0,-29.986,M,0.000,M,0.2,*76
$GPGGA,183735.30,3724.8859869,N,12200.1107367,W,4,19,1.0,-29.986,M,0.000,M,0.3,*7B
$GPGGA,183735.40,3724.8859867,N,12200.1107366,W,4,19,1.0,-29.986,M,0.000,M,0.4,*74
$GPGGA,183735.50,3724.8859868,N,12200.1107368,W,4,19,1.0,-29.986,M,0.000,M,0.5,*75
$GPGGA,183735.60,3724.8859876,N,12200.1107380,W,4,19,1.0,-29.987,M,0.000,M,0.6,*7D
$GPGGA,183735.70,3724.8859875,N,12200.1107378,W,4,19,1.0,-29.988,M,0.000,M,0.7,*76
$GPGGA,183735.80,3724.8859874,N,12200.1107377,W,4,19,1.0,-29.984,M,0.000,M,0.8,*74
$GPGGA,183735.90,3724.8859868,N,12200.1107376,W,4,19,1.0,-29.984,M,0.000,M,0.9,*78
$GPGGA,183736.00,3724.8859867,N,12200.1107360,W,4,19,1.0,-29.986,M,0.000,M,0.0,*71
$GPGGA,183736.10,3724.8859870,N,12200.1107362,W,4,19,1.0,-29.985,M,0.000,M,0.1,*76
$GPGGA,183736.20,3724.8859863,N,12200.1107368,W,4,19,1.0,-29.985,M,0.000,M,0.2,*7E
$GPGGA,183736.30,3724.8859871,N,12200.1107374,W,4,19,1.0,-29.983,M,0.000,M,0.3,*76
$GPGGA,183736.40,3724.8859870,N,12200.1107368,W,4,19,1.0,-29.986,M,0.000,M,0.4,*7F
$GPGGA,183736.50,3724.8859868,N,12200.1107375,W,4,19,1.0,-29.987,M,0.000,M,0.5,*7B
$GPGGA,183736.60,3724.8859868,N,12200.1107368,W,4,19,1.0,-29.984,M,0.000,M,0.6,*74
$GPGGA,183736.70,3724.8859873,N,12200.1107374,W,4,19,1.0,-29.985,M,0.000,M,0.7,*72
$GPGGA,183736.80,3724.8859867,N,12200.1107377,W,4,19,1.0,-29.984,M,0.000,M,0.8,*75
$GPGGA,183736.90,3724.8859871,N,12200.1107375,W,4,19,1.0,-29.983,M,0.000,M,0.9,*77
$GPGGA,183737.00,3724.8859874,N,12200.1107367,W,4,19,1.0,-29.983,M,0.000,M,0.0,*70
$GPGGA,183737.10,3724.8859871,N,12200.1107364,W,4,19,1.0,-29.986,M,0.000,M,0.1,*73
$GPGGA,183737.20,3724.8859868,N,12200.1107375,W,4,19,1.0,-29.985,M,0.000,M,0.2,*78
$GPGGA,183737.30,3724.8859866,N,12200.1107372,W,4,19,1.0,-29.987,M,0.000,M,0.3,*73
$GPGGA,183737.40,3724.8859868,N,12200.1107368,W,4,19,1.0,-29.986,M,0.000,M,0.4,*77
$GPGGA,183737.50,3724.8859868,N,12200.1107365,W,4,19,1.0,-29.986,M,0.000,M,0.5,*7A
$GPGGA,183737.60,3724.8859869,N,12200.1107370,W,4,19,1.0,-29.987,M,0.000,M,0.6,*7E
$GPGGA,183737.70,3724.8859867,N,12200.1107376,W,4,19,1.0,-29.985,M,0.000,M,0.7,*74
$GPGGA,183737.80,3724.8859866,N,12200.1107371,W,4,19,1.0,-29.983,M,0.000,M,0.8,*74
$GPGGA,183737.90,3724.8859865,N,12200.1107374,W,4,19,1.0,-29.983,M,0.000,M,0.9,*72
$GPGGA,183738.00,3724.8859875,N,12200.1107365,W,4,19,1.0,-29.981,M,0.000,M,0.0,*7E
$GPGGA,183738.10,3724.8859870,N,12200.1107366,W,4,19,1.0,-29.982,M,0.000,M,0.1,*7B
$GPGGA,183738.20,3724.8859866,N,12200.1107364,W,4,19,1.0,-29.982,M,0.000,M,0.2,*7E
$GPGGA,183738.30,3724.8859871,N,12200.1107367,W,4,19,1.0,-29.984,M,0.000,M,0.3,*7D
$GPGGA,183738.40,3724.8859877,N,12200.1107365,W,4,19,1.0,-29.984,M,0.000,M,0.4,*79
$GPGGA,183738.50,3724.8859872,N,12200.1107368,W,4,19,1.0,-29.983,M,0.000,M,0.5,*76
$GPGGA,183738.60,3724.8859869,N,12200.1107368,W,4,19,1.0,-29.982,M,0.000,M,0.6,*7D
$GPGGA,183738.70,3724.8859871,N,12200.1107379,W,4,19,1.0,-29.982,M,0.000,M,0.7,*74
$GPGGA,183738.80,3724.8859870,N,12200.1107372,W,4,19,1.0,-29.981,M,0.000,M,0.8,*7D
$GPGGA,183738.90,3724.8859870,N,12200.1107373,W,4,19,1.0,-29.981,M,0.000,M,0.9,*7C
$GPGGA,183739.00,3724.8859867,N,12200.1107371,W,4,19,1.0,-29.984,M,0.000,M,0.0,*7C
$GPGGA,183739.10,3724.8859870,N,12200.1107367,W,4,19,1.0,-29.984,M,0.000,M,0.1,*7D
$GPGGA,183739.20,3724.8859867,N,12200.1107365,W,4,19,1.0,-29.982,M,0.000,M,0.2,*7F
$GPGGA,183739.30,3724.8859871,N,12200.1107370,W,4,19,1.0,-29.982,M,0.000,M,0.3,*7C
$GPGGA,183739.40,3724.8859871,N,12200.1107369,W,4,19,1.0,-29.984,M,0.000,M,0.4,*72
